"","municipio","uf","lat","long"
"1","Abaiara","CE",-7.3419854,-39.0438607
"2","Acarape","CE",-4.13094091666667,-39.0843155833333
"3","Acaraú","CE",-2.8835969,-40.1195182
"4","Acopiara","CE",-6.0944789,-39.4545269
"5","Aiuaba","CE",-6.5697755,-40.1245462
"6","Alcântaras","CE",-3.5875356,-40.5445196
"7","Altaneira","CE",-6.9985696,-39.7439887
"8","Alto Santo","CE",-5.5213738,-38.2717537
"9","Amontada","CE",-3.3657783,-39.8330033
"10","Antonina do Norte","CE",-6.77308161666667,-39.9998350666667
"11","Apuiarés","CE",-3.9513145,-39.4329696
"12","Aquiraz","CE",-3.904553245,-38.383635975
"13","Aracati","CE",-4.58061086315789,-37.7546010631579
"14","Aracoiaba","CE",-4.3731367,-38.8111571
"15","Ararendá","CE",-4.7521742,-40.8272572
"16","Araripe","CE",-7.2015837,-40.031868
"17","Aratuba","CE",-4.4181379,-39.0430169
"18","Arneiroz","CE",-6.3185779,-40.1621683
"19","Assaré","CE",-6.87447306666667,-39.8741362444444
"20","Aurora","CE",-6.94270815454545,-38.9689189727273
"21","Baixio","CE",-6.783333,-40.1666669
"22","Banabuiú","CE",-5.314018,-38.9233694
"23","Barbalha","CE",-7.31489085714286,-39.3098394357143
"24","Barreira","CE",-4.2883582,-38.6413348
"25","Barro","CE",-7.1815555,-38.7867947
"26","Barroquinha","CE",-3.0191375,-41.1398507
"27","Baturité","CE",-5.55995321428571,-39.5931970571429
"28","Beberibe","CE",-4.19297641875,-38.12845749375
"29","Bela Cruz","CE",-3.04132186666667,-40.1798204222222
"30","Boa Viagem","CE",-5.12930331333333,-39.7335272933333
"31","Brejo Santo","CE",-7.49069463076923,-38.9850531769231
"32","Camocim","CE",-2.91058482307692,-40.8234077615385
"33","Campos Sales","CE",-7.0783276,-40.3762574
"34","Canindé","CE",-4.3707513375,-39.30940929375
"35","Capistrano","CE",-4.4720933,-38.9040188
"36","Caridade","CE",-4.2208955,-39.1943259
"37","Caririaçu","CE",-7.04121911,-39.28314331
"38","Cariré","CE",-3.94939301111111,-40.4740881555556
"39","Cariús","CE",-6.54125862,-39.49816625
"40","Carnaubal","CE",-4.1595082,-40.9451838
"41","Cascavel","CE",-4.13048027142857,-38.2369411928571
"42","Catarina","CE",-6.1279628,-39.8780121
"43","Catunda","CE",-4.533333,-40.2
"44","Caucaia","CE",-3.73752181025641,-38.6623283358974
"45","Cedro","CE",-6.6075196,-39.0606073
"46","Chaval","CE",-3.0448426,-41.2363844
"47","Chorozinho","CE",-4.29934058571429,-38.5010845571429
"48","Choró","CE",-8.36307116,-39.69686804
"49","Coreaú","CE",-3.57460497,-40.67193907
"50","Crateús","CE",-5.17632833043478,-40.6673543565217
"51","Crato","CE",-7.23094111153846,-39.4057081
"52","Croatá","CE",-4.4046649,-40.9123726
"53","Cruz","CE",-3.15505983333333,-40.314111
"54","Deputado Irapuan Pinheiro","CE",-5.9217359,-39.2643974
"55","Ererê","CE",-6.0324792,-38.3491136
"56","Eusébio","CE",-3.89146353076923,-38.4558582692308
"57","Farias Brito","CE",-6.9267723,-39.5736764
"58","Forquilha","CE",-4.24234475,-40.02067475
"59","Fortaleza","CE",-3.75580303096085,-38.5131368512455
"60","Fortim","CE",-4.4618868,-37.8019375
"61","Frecheirinha","CE",-3.7473735,-40.8116216
"62","General Sampaio","CE",-4.0519582,-39.4371616
"63","Granja","CE",-3.1242583,-40.8351945
"64","Granjeiro","CE",-6.8869143,-39.2214487
"65","Graça","CE",-4.0466816,-40.7496573
"66","Groaíras","CE",-3.9172019,-40.3767855
"67","Guaiúba","CE",-4.059678,-38.6466700285714
"68","Guaraciaba do Norte","CE",-4.1674444,-40.7522824
"69","Guaramiranga","CE",-4.2713869,-38.9462441
"70","Hidrolândia","CE",-4.3968151,-40.4348691
"71","Horizonte","CE",-4.10809392727273,-38.4946161272727
"72","Ibaretama","CE",-4.7972306,-38.7528679
"73","Ibiapina","CE",-3.9153386,-40.8890962
"74","Ibicuitinga","CE",-4.9776629,-38.6377111
"75","Icapuí","CE",-4.7023807,-37.3479832
"76","Icó","CE",-6.39398590666667,-38.85352694
"77","Iguatu","CE",-6.354667584,-39.294260188
"78","Independência","CE",-5.4001158,-40.3132828
"79","Ipaporanga","CE",-4.8981912,-40.7691578
"80","Ipaumirim","CE",-6.8448254,-38.726849
"81","Ipu","CE",-4.3281195,-40.7105251
"82","Ipueiras","CE",-4.72070533571429,-40.70334335
"83","Iracema","CE",-5.8116498,-38.297217
"84","Irauçuba","CE",-3.746330825,-39.782825625
"85","Itaitinga","CE",-3.96254095,-38.526723925
"86","Itaiçaba","CE",-4.6742612,-37.8222758
"87","Itapagé","CE",-3.6851616,-39.5857786
"88","Itapipoca","CE",-3.50506926521739,-39.5779971217391
"89","Itapiúna","CE",-4.5645399,-38.917155
"90","Itarema","CE",-2.9219865375,-39.9145157125
"91","Itatira","CE",-4.5274873,-39.6246232
"92","Jaguaretama","CE",-5.6131341,-38.7638424
"93","Jaguaribara","CE",-5.6621226,-38.6188284
"94","Jaguaribe","CE",-5.9022332,-38.6299676
"95","Jaguaruana","CE",-4.83927504,-37.78309198
"96","Jardim","CE",-7.5707876,-39.2927628
"97","Jati","CE",-7.6995917,-39.0233519
"98","Jijoca de Jericoacoara","CE",-2.81439731428571,-40.5001609428571
"99","Juazeiro do Norte","CE",-7.2281548525,-39.320247515
"100","Jucás","CE",-6.51394619090909,-39.5209532818182
"101","Lavras da Mangabeira","CE",-6.75929775555556,-38.9810914
"102","Limoeiro do Norte","CE",-5.14837988888889,-38.0962563
"103","Madalena","CE",-4.8537466,-39.571659
"104","Maracanaú","CE",-3.87119713125,-38.6218472625
"105","Maranguape","CE",-3.89322052857143,-38.6821775666667
"106","Marco","CE",-3.12167266,-40.14986567
"107","Martinópole","CE",-3.221935,-40.6913895
"108","Massapê","CE",-3.52285283636364,-40.3453435545455
"109","Mauriti","CE",-7.38477993529412,-38.7712989176471
"110","Meruoca","CE",-3.5463393,-40.4452788
"111","Milagres","CE",-7.30848750909091,-38.9443423545455
"112","Milhã","CE",-5.6718043,-39.1940257
"113","Miraíma","CE",-3.5663077,-39.9655833
"114","Missão Velha","CE",-7.24971490833333,-39.1454960083333
"115","Mombaça","CE",-5.7431205,-39.628501
"116","Monsenhor Tabosa","CE",-4.7895309,-40.0606496
"117","Morada Nova","CE",-5.09063086470588,-38.3831353411765
"118","Moraújo","CE",-3.4740688,-40.6733815
"119","Morrinhos","CE",-3.2266113,-40.1228644
"120","Mucambo","CE",-4.271111,-40.830278
"121","Mulungu","CE",-4.2979151,-39.0021585
"122","Nova Olinda","CE",-7.0967813,-39.6806383
"123","Nova Russas","CE",-4.69558132307692,-40.5475558923077
"124","Novo Oriente","CE",-5.5339414,-40.7751443
"125","Ocara","CE",-4.4923566,-38.5958715
"126","Orós","CE",-6.244642,-38.91313359
"127","Pacajus","CE",-4.17051518571429,-38.4647528285714
"128","Pacatuba","CE",-3.97999183571429,-38.6132666571429
"129","Pacoti","CE",-4.2246016,-38.9254279
"130","Pacujá","CE",-3.9895112,-40.6982639
"131","Palhano","CE",-4.7441297,-37.9622349
"132","Palmácia","CE",-4.1513641,-38.8473883
"133","Paracuru","CE",-3.42778712222222,-39.0335289777778
"134","Paraipaba","CE",-3.43456037142857,-39.1476539
"135","Parambu","CE",-6.2094348,-40.6947641
"136","Paramoti","CE",-4.1009596,-39.2343561
"137","Pedra Branca","CE",-5.4528675,-39.7097324
"138","Penaforte","CE",-7.8271795,-39.0875745
"139","Pentecoste","CE",-3.7914875,-39.2661162
"140","Pereiro","CE",-6.0455322,-38.4599624
"141","Pindoretama","CE",-4.02766652,-38.30532876
"142","Piquet Carneiro","CE",-5.797661,-39.4087554
"143","Pires Ferreira","CE",-4.2370279,-40.6366185
"144","Poranga","CE",-4.7476781,-40.9225519
"145","Porteiras","CE",-7.5304525,-39.1225895
"146","Potengi","CE",-7.09260243333333,-40.0291567333333
"147","Potiretama","CE",-5.658148,-38.22336878
"148","Quiterianópolis","CE",-5.846975025,-40.703643475
"149","Quixadá","CE",-4.96308820416667,-39.023620325
"150","Quixelô","CE",-5.95892694,-39.03326692
"151","Quixeramobim","CE",-5.22197982631579,-39.3200385368421
"152","Quixeré","CE",-5.07694881428571,-37.9847024571429
"153","Redenção","CE",-4.23037004166667,-38.7296111833333
"154","Reriutaba","CE",-4.134202375,-40.5737601625
"155","Russas","CE",-4.93811282222222,-37.9735771388889
"156","Saboeiro","CE",-6.5406195,-39.9071124777778
"157","Salitre","CE",-7.28264911666667,-40.45498195
"158","Santa Quitéria","CE",-4.33156920666667,-40.1563723666667
"159","Santana do Acaraú","CE",-3.4458476,-40.202475675
"160","Santana do Cariri","CE",-7.18630823333333,-39.7364819166667
"161","Senador Pompeu","CE",-5.58828097692308,-39.3712619461539
"162","Senador Sá","CE",-3.349547625,-40.462309075
"163","Sobral","CE",-3.69117014285714,-40.3427907428571
"164","Solonópole","CE",-5.72626798181818,-39.0148130272727
"165","São Benedito","CE",-4.045927,-40.86614732
"166","São Gonçalo do Amarante","CE",-3.59305321764706,-38.9564899235294
"167","São João do Jaguaribe","CE",-5.2768121,-38.26821332
"168","São Luís do Curu","CE",-3.67085181428571,-39.2501925428571
"169","Tabuleiro do Norte","CE",-5.26049339,-38.11815979
"170","Tamboril","CE",-4.83218300769231,-40.3213740769231
"171","Tarrafas","CE",-6.68395202,-39.75893334
"172","Tauá","CE",-5.99983643,-40.305147905
"173","Tejuçuoca","CE",-3.95956378333333,-39.5625787833333
"174","Tianguá","CE",-3.72691245882353,-40.9909403588235
"175","Trairi","CE",-3.27614818333333,-39.2679312
"176","Tururu","CE",-3.60021802,-39.4221226
"177","Ubajara","CE",-3.85321736666667,-40.926533425
"178","Umari","CE",-5.01990401428571,-39.3858778857143
"179","Umirim","CE",-3.6789313,-39.3531770625
"180","Uruburetama","CE",-3.62957957,-39.50599175
"181","Uruoca","CE",-3.31560075714286,-40.557197
"182","Varjota","CE",-4.19282798,-40.47904432
"183","Viçosa do Ceará","CE",-3.56214317333333,-41.09343204
"184","Várzea Alegre","CE",-6.22840046,-39.7385235
