"","municipio","uf","lat","long"
"1","Aguiar","PB",-7.0930524,-38.1701339
"2","Alagoa Grande","PB",-7.07463856363636,-35.6051935090909
"3","Alagoa Nova","PB",-7.067987,-35.7611473
"4","Alagoinha","PB",-6.9532454,-35.5385115
"5","Alcantil","PB",-7.7345943,-36.0756723
"6","Algodão de Jandaíra","PB",-6.8110172,-35.9152343
"7","Alhandra","PB",-7.4393252,-34.9135729
"8","Amparo","PB",-7.5688258,-37.0564539
"9","Aparecida","PB",-6.77614183333333,-38.0587688333333
"10","Arara","PB",-6.8327644,-35.749012
"11","Araruna","PB",-6.55013118181818,-35.7464717363636
"12","Araçagi","PB",-6.8474198,-35.3819902
"13","Areia","PB",-6.96224712857143,-35.6957814928571
"14","Areia de Baraúnas","PB",-7.1086344,-36.9500026
"15","Areial","PB",-7.0609629,-35.9361707
"16","Aroeiras","PB",-7.5481044,-35.7180843
"17","Assunção","PB",-7.0767574,-36.7293829
"18","Bananeiras","PB",-6.7510509,-35.6333491
"19","Baraúna","PB",-6.6339837,-36.270339
"20","Barra de Santa Rosa","PB",-6.7216504,-36.0628104
"21","Barra de Santana","PB",-7.524589,-35.9981375
"22","Barra de São Miguel","PB",-7.7486862,-36.3194592
"23","Bayeux","PB",-7.12858760555555,-34.9227829111111
"24","Baía da Traição","PB",-6.691074,-34.9350985
"25","Belém","PB",-6.7346949,-35.5174272
"26","Belém do Brejo do Cruz","PB",-6.1873418,-37.5314554
"27","Bernardino Batista","PB",-6.4523799,-38.5513564
"28","Boa Ventura","PB",-7.4118165,-38.2092845
"29","Boa Vista","PB",-6.89999933333333,-35.5905710666667
"30","Bom Jesus","PB",-6.8297743,-38.6543094
"31","Bom Sucesso","PB",-6.4413143,-37.9282346
"32","Bonito de Santa Fé","PB",-7.3083256,-38.5052027
"33","Boqueirão","PB",-7.4802886,-36.1339395
"34","Borborema","PB",-6.8044843,-35.5959338
"35","Brejo do Cruz","PB",-6.3456999,-37.4968583
"36","Brejo dos Santos","PB",-6.3780869,-37.8247678
"37","Caaporã","PB",-7.5153578,-34.90959997
"38","Cabaceiras","PB",-7.4890835,-36.2883148
"39","Cabedelo","PB",-6.9896374,-34.8322928375
"40","Cachoeira dos Índios","PB",-6.9260859,-38.6742996
"41","Cacimba de Areia","PB",-7.0989862,-37.1652453
"42","Cacimba de Dentro","PB",-6.6391831,-35.7782351
"43","Cacimbas","PB",-7.21299073333333,-37.1334306666667
"44","Caiçara","PB",-6.93394272222222,-39.0130846222222
"45","Cajazeiras","PB",-6.886246,-38.559540665
"46","Cajazeirinhas","PB",-6.9681379,-37.8038971
"47","Caldas Brandão","PB",-7.1261858,-35.3110318
"48","Camalaú","PB",-7.8860188,-36.8235182
"49","Campina Grande","PB",-7.23203865802469,-35.8866060814815
"50","Campo de Santana","PB",-6.4855021,-35.6306639
"51","Capim","PB",-6.9162854,-35.1675305
"52","Caraúbas","PB",-7.727548,-36.4938345
"53","Carrapateira","PB",-7.0333429,-38.3444522
"54","Casserengue","PB",-6.8091862,-35.8168966
"55","Catingueira","PB",-7.1275631,-37.6073717
"56","Catolé do Rocha","PB",-6.35014028,-37.7461633333333
"57","Caturité","PB",-7.4114252,-36.0303797
"58","Conceição","PB",-7.5519472,-38.5099709
"59","Condado","PB",-6.9035236,-37.6035525
"60","Conde","PB",-7.260695,-34.9083117
"61","Congo","PB",-7.7946263,-36.6616689
"62","Coremas","PB",-6.999264,-37.9351821
"63","Coxixola","PB",-7.6252842,-36.6032423
"64","Cruz do Espírito Santo","PB",-7.13685,-35.088072
"65","Cubati","PB",-6.8678843,-36.3418387
"66","Cuitegi","PB",-6.895127,-35.5149552
"67","Cuité","PB",-6.4817267,-36.1496049
"68","Cuité de Mamanguape","PB",-6.9100853,-35.2671313
"69","Curral Velho","PB",-7.5498874,-38.1958555
"70","Curral de Cima","PB",-6.723784,-35.2623211
"71","Damião","PB",-6.6315829,-35.9050361
"72","Desterro","PB",-7.2789315,-37.0867838
"73","Diamante","PB",-7.4332216,-38.2614999
"74","Dona Inês","PB",-6.615237,-35.6155738
"75","Duas Estradas","PB",-6.6855836,-35.4152323
"76","Emas","PB",-7.1555852,-37.6712502
"77","Esperança","PB",-7.0268757,-35.8595201
"78","Fagundes","PB",-7.3459879,-35.7975358
"79","Frei Martinho","PB",-6.404136,-36.4485912
"80","Gado Bravo","PB",-7.5431893,-35.800636
"81","Guarabira","PB",-6.8555178,-35.490124
"82","Gurinhém","PB",-7.1226857,-35.4224797
"83","Gurjão","PB",-7.2477867,-36.4854411
"84","Ibiara","PB",-7.5022649,-38.403977
"85","Igaracy","PB",-7.1662049,-38.1415438
"86","Imaculada","PB",-7.3914979,-37.5068061
"87","Ingá","PB",-7.2674045,-35.6118643
"88","Itabaiana","PB",-7.3293891,-35.3333331
"89","Itaporanga","PB",-7.3027378,-38.150394
"90","Itapororoca","PB",-6.8308398,-35.2470491
"91","Itatuba","PB",-7.3725872,-35.6322365
"92","Jacaraú","PB",-6.6167832,-35.2826312
"93","Jericó","PB",-6.542748,-37.8056478
"94","João Pessoa","PB",-7.12569217518248,-34.8690678890511
"95","Juarez Távora","PB",-7.1722579,-35.5671049
"96","Juazeirinho","PB",-7.0670814,-36.5783407
"97","Junco do Seridó","PB",-6.9948159,-36.7114747
"98","Juripiranga","PB",-7.3765005,-35.2349484
"99","Juru","PB",-7.5415397,-37.8124836
"100","Lagoa","PB",-6.8046904,-38.0624184666667
"101","Lagoa Seca","PB",-7.1689117,-35.8555851
"102","Lagoa de Dentro","PB",-6.6694826,-35.3631319
"103","Lastro","PB",-6.5121806,-38.1696535
"104","Livramento","PB",-7.3739292,-36.9468778
"105","Logradouro","PB",-6.6176931,-35.4374324
"106","Lucena","PB",-6.8992655,-34.8690701
"107","Malta","PB",-6.90555098888889,-37.5219042111111
"108","Mamanguape","PB",-6.8386889,-35.1365302
"109","Manaíra","PB",-7.6979184,-38.1486843
"110","Marcação","PB",-6.7677255,-35.0157002
"111","Mari","PB",-7.0499102,-35.3109997
"112","Marizópolis","PB",-6.83509933333333,-38.3523728333333
"113","Massaranduba","PB",-7.1892698,-35.7907486
"114","Mataraca","PB",-6.6020533,-35.0509184
"115","Matinhas","PB",-7.1107863,-35.7941556
"116","Mato Grosso","PB",-6.5091308,-37.7618004
"117","Maturéia","PB",-7.2664842,-37.3491898
"118","Mogeiro","PB",-7.2948532,-35.47938145
"119","Montadas","PB",-7.086815,-35.9448088
"120","Monte Horebe","PB",-7.2126349,-38.5753171
"121","Monteiro","PB",-7.89217317857143,-37.12535475
"122","Mulungu","PB",-7.02434,-35.4594219
"123","Mãe d'Água","PB",-7.252786,-37.4328484
"124","Natuba","PB",-7.628328,-35.5727012
"125","Nazarezinho","PB",-6.9116831,-38.3196549
"126","Nova Floresta","PB",-6.4547115,-36.2030643
"127","Nova Olinda","PB",-7.471787,-38.0385522
"128","Nova Palmeira","PB",-6.6788929,-36.4157002
"129","Olho d'Água","PB",-7.2060815,-37.7531959
"130","Olivedos","PB",-6.9852851,-36.237339
"131","Ouro Velho","PB",-7.6214177,-37.1527916
"132","Parari","PB",-7.3160771,-36.6556435
"133","Passagem","PB",-7.1152364,-37.0473184
"134","Patos","PB",-7.02754541935484,-37.2767825580645
"135","Paulista","PB",-6.58772335,-37.61023025
"136","Pedra Branca","PB",-7.4265367,-38.0648754
"137","Pedra Lavrada","PB",-6.7537834,-36.4703406
"138","Pedras de Fogo","PB",-7.3753586,-35.1387866
"139","Pedro Régis","PB",-6.6518635,-35.2671911
"140","Piancó","PB",-7.1980233,-37.9295372
"141","Picuí","PB",-6.547271,-36.3620906
"142","Pilar","PB",-7.2704508,-35.2543325
"143","Pilões","PB",-6.903997,-35.6301262
"144","Pilõezinhos","PB",-6.8823849,-35.5406334
"145","Pirpirituba","PB",-6.7802542,-35.488603
"146","Pitimbu","PB",-7.470306725,-34.8130784
"147","Pocinhos","PB",-7.0739879,-36.0611707
"148","Pombal","PB",-6.76955309285714,-37.7980394928571
"149","Poço Dantas","PB",-6.3833442,-38.51157552
"150","Poço de José de Moura","PB",-6.57008945,-38.5248671
"151","Prata","PB",-7.6995065625,-37.1055924875
"152","Princesa Isabel","PB",-7.7364029,-37.9879477416667
"153","Puxinanã","PB",-7.18380156666667,-35.9357459333333
"154","Queimadas","PB",-7.36211385,-35.90274099
"155","Quixabá","PB",-7.05063806666667,-37.1547131
"156","Remígio","PB",-6.8929823875,-35.83112615
"157","Riacho de Santo Antônio","PB",-7.6851787,-36.1585518
"158","Riacho dos Cavalos","PB",-6.436980875,-37.6482356
"159","Riachão","PB",-6.723291625,-35.631180925
"160","Riachão do Bacamarte","PB",-7.2575513,-35.6678277666667
"161","Riachão do Poço","PB",-7.16979733333333,-35.2874891
"162","Rio Tinto","PB",-6.80306910909091,-35.0617650454545
"163","Salgadinho","PB",-7.0967366,-36.8459823
"164","Salgado de São Félix","PB",-7.36291644,-35.43758776
"165","Santa Cecília","PB",-7.7411383,-35.8763505
"166","Santa Cruz","PB",-6.5259677,-38.0565317
"167","Santa Helena","PB",-6.878788,-37.4178821333333
"168","Santa Inês","PB",-7.628725,-38.5599971
"169","Santa Luzia","PB",-6.86656401818182,-36.9197681909091
"170","Santa Rita","PB",-7.12280042222222,-34.9790302222222
"171","Santa Teresinha","PB",-7.08576706666667,-37.4522475
"172","Santana de Mangueira","PB",-7.54956333333333,-38.3209154666667
"173","Santana dos Garrotes","PB",-7.3866382375,-37.97335505
"174","Santarém","PB",-6.4700101,-38.4789048
"175","Santo André","PB",-7.2147793,-36.6268509333333
"176","Sapé","PB",-7.09419389166667,-35.2323465833333
"177","Seridó","PB",-6.913211625,-36.3922319
"178","Serra Branca","PB",-7.48669599,-36.66444813
"179","Serra Grande","PB",-7.21045023333333,-38.3654505666667
"180","Serra Redonda","PB",-7.1850361,-35.6854285333333
"181","Serra da Raiz","PB",-6.6857253,-35.4343638
"182","Serraria","PB",-6.81833824444444,-35.6319676444444
"183","Sertãozinho","PB",-6.73803533333333,-35.4345775
"184","Sobrado","PB",-7.16508945,-35.227187625
"185","Soledade","PB",-7.05757445,-36.3635009
"186","Solânea","PB",-6.7673689,-35.7150880555556
"187","Sossêgo","PB",-6.76686886666667,-36.2481310666667
"188","Sousa","PB",-6.76474276956522,-38.2285391695652
"189","Sumé","PB",-7.67060553333333,-36.8819684444444
"190","São Bentinho","PB",-6.89586756666667,-37.7285649666667
"191","São Bento","PB",-6.48834122222222,-37.4488314666667
"192","São Domingos de Pombal","PB",-6.8272286,-37.9000636
"193","São Domingos do Cariri","PB",-7.6323479,-36.43560405
"194","São Francisco","PB",-6.63211786666667,-37.0540543333333
"195","São José da Lagoa Tapada","PB",-6.9351402,-38.1613561
"196","São José de Caiana","PB",-7.251580575,-38.303159375
"197","São José de Espinharas","PB",-6.8410398,-37.3201683
"198","São José de Piranhas","PB",-7.11817844545455,-38.5016164363636
"199","São José de Princesa","PB",-7.63843853333333,-38.0930941
"200","São José do Bonfim","PB",-7.16379913333333,-37.3061590666667
"201","São José do Brejo do Cruz","PB",-6.20963363333333,-37.3546308
"202","São José do Sabugi","PB",-6.775535175,-36.8000778
"203","São José dos Cordeiros","PB",-7.3899367,-36.808473825
"204","São José dos Ramos","PB",-7.24768343333333,-35.372375
"205","São João do Cariri","PB",-7.38988644444444,-36.5338851666667
"206","São João do Rio do Peixe","PB",-6.73850938461539,-38.4444218076923
"207","São João do Tigre","PB",-8.0798222,-36.8510251
"208","São Mamede","PB",-6.926327775,-37.096177325
"209","São Miguel de Taipu","PB",-7.2385225,-35.2215231
"210","São Sebastião de Lagoa de Roça","PB",-7.08271523333333,-35.8520851333333
"211","São Sebastião do Umbuzeiro","PB",-8.15360296666667,-37.0152388666667
"212","Taperoá","PB",-7.2077795,-36.8259408666667
"213","Tavares","PB",-7.63780405,-37.8717455
"214","Teixeira","PB",-7.22364396666667,-37.2530324444444
"215","Tenório","PB",-6.9866873,-36.6615366666667
"216","Triunfo","PB",-6.57926145,-38.594748925
"217","Uiraúna","PB",-6.5172134,-38.4084761111111
"218","Umbuzeiro","PB",-7.69401493,-35.65638053
"219","Vieirópolis","PB",-6.5073358,-38.2565725666667
"220","Vista Serrana","PB",-6.73589953333333,-37.5681398666667
"221","Várzea","PB",-6.76958313333333,-36.9857430666667
"222","Zabelê","PB",-8.07485666666667,-37.0992351
"223","Água Branca","PB",-7.51464574285714,-37.6403972571429
