"","municipio","uf","lat","long"
"1","Acauã","PI",-8.2119771,-41.0741495
"2","Agricolândia","PI",-5.8002708,-42.66829
"3","Alagoinha do Piauí","PI",-7.0104267,-40.9401625
"4","Alegrete do Piauí","PI",-7.2477883,-40.8529041
"5","Alto Longá","PI",-5.2513497,-42.2091434
"6","Altos","PI",-5.0399092,-42.4612491
"7","Alvorada do Gurguéia","PI",-8.3749704,-43.8468245
"8","Amarante","PI",-6.2391654,-42.8509576
"9","Angical do Piauí","PI",-6.0859256,-42.7394917
"10","Antônio Almeida","PI",-7.2052992,-44.2145299
"11","Anísio de Abreu","PI",-9.191423,-43.0489508
"12","Aroazes","PI",-6.1154364,-41.793142
"13","Aroeiras do Itaim","PI",-6.9061111,-41.2625
"14","Arraial","PI",-6.65022306666667,-42.5334470333333
"15","Assunção do Piauí","PI",-5.8671054,-41.0486575
"16","Avelino Lopes","PI",-10.1354244,-43.9453372
"17","Baixa Grande do Ribeiro","PI",-7.850153,-45.2134924
"18","Barra D'Alcântara","PI",-6.5226638,-42.1036805
"19","Barras","PI",-4.2494812,-42.2946475
"20","Barreiras do Piauí","PI",-9.9165943,-45.4754095
"21","Barro Duro","PI",-5.816078,-42.5115529
"22","Batalha","PI",-4.0236208,-42.0801649
"23","Bela Vista do Piauí","PI",-7.982769,-41.8777572
"24","Belém do Piauí","PI",-7.371364,-40.9723751
"25","Beneditinos","PI",-5.4553749,-42.3603766
"26","Bertolínia","PI",-7.641229,-43.9499045
"27","Betânia do Piauí","PI",-8.148389,-40.7940744
"28","Boa Hora","PI",-4.4113643,-42.0863811
"29","Bocaina","PI",-6.940328,-41.3206132
"30","Bom Jesus","PI",-9.0750489,-44.3572658
"31","Bom Princípio do Piauí","PI",-3.1917805,-41.6451854
"32","Bonfim do Piauí","PI",-9.166455,-42.8742045
"33","Boqueirão do Piauí","PI",-4.4873638,-42.074381
"34","Brasileira","PI",-4.1313366,-41.7817878
"35","Brejo do Piauí","PI",-8.1995944,-42.8323832
"36","Buriti dos Lopes","PI",-3.17987191428571,-41.8699610285714
"37","Buriti dos Montes","PI",-5.3092397,-41.0976715
"38","Cabeceiras do Piauí","PI",-4.4765556,-42.3101927
"39","Cajazeiras do Piauí","PI",-6.7923032,-42.4012219
"40","Cajueiro da Praia","PI",-2.93826523333333,-41.3470797
"41","Caldeirão Grande do Piauí","PI",-7.330439,-40.6327885
"42","Campinas do Piauí","PI",-7.661419,-41.8642338
"43","Campo Alegre do Fidalgo","PI",-8.3810274,-41.8355202
"44","Campo Grande do Piauí","PI",-7.1310664,-41.0362423
"45","Campo Largo do Piauí","PI",-3.8134032,-42.6305257
"46","Campo Maior","PI",-4.82880453846154,-42.1696952538462
"47","Canavieira","PI",-7.6878155,-43.721942
"48","Canto do Buriti","PI",-8.1113737,-42.9465869
"49","Capitão Gervásio Oliveira","PI",-8.4900851,-41.8180762
"50","Capitão de Campos","PI",-4.4591997,-41.9401331
"51","Caracol","PI",-9.566667,-45.466667
"52","Caraúbas do Piauí","PI",-3.4760333,-41.8434809
"53","Caridade do Piauí","PI",-7.7249612,-40.9902275
"54","Castelo do Piauí","PI",-5.3216735,-41.5531478
"55","Caxingó","PI",-3.4203559,-41.8984983
"56","Cocal","PI",-3.4683964,-41.5604419
"57","Cocal de Telha","PI",-4.5597233,-41.9713313
"58","Cocal dos Alves","PI",-3.61875745,-41.48694955
"59","Coivaras","PI",-5.0957377,-42.2013453
"60","Colônia do Gurguéia","PI",-8.1824053,-43.7922449
"61","Colônia do Piauí","PI",-7.2258111,-42.1777106
"62","Conceição do Canindé","PI",-7.8881527,-41.58507
"63","Coronel José Dias","PI",-8.8363465,-42.4967204
"64","Corrente","PI",-10.4417785,-45.164464
"65","Cristalândia do Piauí","PI",-10.6547776,-45.1815154
"66","Cristino Castro","PI",-8.8177276,-44.2257436
"67","Curimatá","PI",-7.266667,-40.833333
"68","Currais","PI",-9.0066904,-44.4107011
"69","Curral Novo do Piauí","PI",-7.8250869,-40.8946749
"70","Curralinhos","PI",-5.6121815,-42.8379871
"71","Demerval Lobão","PI",-5.358114,-42.6755338
"72","Dirceu Arcoverde","PI",-9.3375445,-42.4303635
"73","Dom Expedito Lopes","PI",-6.9594218,-41.6422586
"74","Dom Inocêncio","PI",-9.002466,-41.9750669
"75","Domingos Mourão","PI",-4.2526597,-41.2728522
"76","Elesbão Veloso","PI",-6.2054527,-42.1329075
"77","Eliseu Martins","PI",-8.09170153333333,-43.6631276166667
"78","Esperantina","PI",-3.9035369,-42.2339079
"79","Fartura do Piauí","PI",-9.481942,-42.7913062
"80","Flores do Piauí","PI",-7.7820288,-42.9277195
"81","Floresta do Piauí","PI",-7.4729929,-41.7959891
"82","Floriano","PI",-6.770997205,-43.02324525
"83","Francinópolis","PI",-6.3994969,-42.2586136
"84","Francisco Ayres","PI",-6.6227169,-42.6932338
"85","Francisco Macedo","PI",-7.32231125,-40.77662855
"86","Francisco Santos","PI",-7.0030345,-41.138136
"87","Fronteiras","PI",-7.0909095,-40.6149522
"88","Geminiano","PI",-7.1530883,-41.3567967
"89","Gilbués","PI",-9.8251019,-45.3439044
"90","Guadalupe","PI",-6.78689141666667,-43.5652191166667
"91","Guaribas","PI",-9.3844934,-43.6819964
"92","Hugo Napoleão","PI",-5.982081,-42.5595784
"93","Ilha Grande","PI",-2.8657432,-41.8117985
"94","Inhuma","PI",-6.668399,-41.7086678
"95","Ipiranga do Piauí","PI",-11.6181140142857,-43.1314370857143
"96","Isaías Coelho","PI",-7.7378866,-41.6792805
"97","Itainópolis","PI",-7.4531611,-41.4694707
"98","Itaueira","PI",-7.6028526,-43.027739
"99","Jacobina do Piauí","PI",-7.9342933,-41.2056372
"100","Jaicós","PI",-7.3580438,-41.1332472
"101","Jardim do Mulato","PI",-6.0902217,-42.636732
"102","Jatobá do Piauí","PI",-4.7723808,-41.8120813
"103","Jerumenha","PI",-7.0857611,-43.5171
"104","Joaquim Pires","PI",-3.5074384,-42.1857114
"105","Joca Marques","PI",-3.5334584,-42.4013829
"106","José de Freitas","PI",-4.7530873,-42.5766768
"107","João Costa","PI",-8.5104736,-42.4202576
"108","Juazeiro do Piauí","PI",-5.1737635,-41.7037668
"109","Jurema","PI",-8.25656705,-41.99571665
"110","Júlio Borges","PI",-10.314528,-44.2368764
"111","Lagoa Alegre","PI",-4.4413803,-42.5951277
"112","Lagoa de São Francisco","PI",-4.3853512,-41.59924755
"113","Lagoa do Barro do Piauí","PI",-8.47493466666667,-41.5254576333333
"114","Lagoa do Piauí","PI",-5.4147064,-42.6422736
"115","Lagoa do Sítio","PI",-6.5078491,-41.5813398
"116","Lagoinha do Piauí","PI",-5.8310251,-42.6256738
"117","Landri Sales","PI",-7.2451807,-43.930396
"118","Luzilândia","PI",-3.46396437142857,-42.3689824
"119","Luís Correia","PI",-2.880507375,-41.6641378875
"120","Madeiro","PI",-3.4842311,-42.5038096
"121","Manoel Emídio","PI",-8.0082152,-43.8644463
"122","Marcolândia","PI",-7.4453117,-40.6582578
"123","Marcos Parente","PI",-7.122707,-43.8918276
"124","Massapê do Piauí","PI",-7.4619014,-41.1216652
"125","Matias Olímpio","PI",-3.7164046,-42.5564501
"126","Miguel Alves","PI",-4.1696454625,-42.8947282
"127","Miguel Leão","PI",-5.678556,-42.7386215
"128","Milton Brandão","PI",-4.6855074,-41.4369646
"129","Monsenhor Gil","PI",-5.5629634,-42.6168345
"130","Monsenhor Hipólito","PI",-7.0015496,-41.0293732
"131","Monte Alegre do Piauí","PI",-9.7555906,-45.3063421
"132","Morro Cabeça no Tempo","PI",-9.7300671,-43.9087014
"133","Morro do Chapéu do Piauí","PI",-3.7435339,-42.3127144
"134","Murici dos Portelas","PI",-3.3360503,-42.0954927
"135","Nazaré do Piauí","PI",-6.9697201,-42.6697219
"136","Nossa Senhora de Nazaré","PI",-4.6295987,-42.1694998
"137","Nossa Senhora dos Remédios","PI",-3.9774532,-42.6186467
"138","Nova Santa Rita","PI",-8.0873904,-42.0523715
"139","Novo Oriente do Piauí","PI",-6.44901506666667,-41.9349677
"140","Novo Santo Antônio","PI",-5.2911601,-41.9336515
"141","Oeiras","PI",-7.01727021666667,-42.130192
"142","Olho D'Água do Piauí","PI",-5.8475732,-42.5753854
"143","Padre Marcos","PI",-7.3568739,-40.9041545
"144","Paes Landim","PI",-7.7771884,-42.2555447
"145","Pajeú do Piauí","PI",-7.8568173,-42.8216108
"146","Palmeira do Piauí","PI",-8.728081,-44.2367696
"147","Palmeirais","PI",-5.9697136,-43.0537269
"148","Paquetá","PI",-7.1105537,-41.6973381
"149","Parnaguá","PI",-10.229765,-44.6339891
"150","Parnaíba","PI",-2.90414196923077,-41.7751811384615
"151","Passagem Franca do Piauí","PI",-5.8567393,-42.4387555
"152","Patos do Piauí","PI",-7.6666506,-41.2360842
"153","Pau D'Arco do Piauí","PI",-5.2730947,-42.4046118
"154","Paulistana","PI",-8.1553887,-41.1539831
"155","Pavussu","PI",-7.9485645,-43.1973585
"156","Pedro II","PI",-4.4279402,-41.45933475
"157","Pedro Laurentino","PI",-8.0679311,-42.2877682
"158","Picos","PI",-7.08566631923077,-41.4682228230769
"159","Pimenteiras","PI",-6.2389765,-41.4186774
"160","Pio IX","PI",-6.84773,-40.5836128
"161","Piracuruca","PI",-3.9281643,-41.7117252
"162","Piripiri","PI",-4.2740981,-41.7742218
"163","Porto","PI",-3.8957617,-42.7108973
"164","Porto Alegre do Piauí","PI",-6.9657738,-44.1811745
"165","Prata do Piauí","PI",-5.66806333333333,-42.2057472
"166","Queimada Nova","PI",-8.5705461,-41.4159127
"167","Redenção do Gurguéia","PI",-9.48494504,-44.58633114
"168","Regeneração","PI",-6.2346536,-42.6857863714286
"169","Riacho Frio","PI",-10.12525105,-44.95139895
"170","Ribeira do Piauí","PI",-7.6926211,-42.71246695
"171","Ribeiro Gonçalves","PI",-7.56031975714286,-45.2418273142857
"172","Rio Grande do Piauí","PI",-7.7778724,-43.1396778666667
"173","Santa Cruz do Piauí","PI",-7.1842923,-41.7672648666667
"174","Santa Cruz dos Milagres","PI",-5.806186,-41.9527696
"175","Santa Filomena","PI",-9.11212721666667,-45.91633645
"176","Santa Luz","PI",-8.9525227,-44.130028
"177","Santa Rosa do Piauí","PI",-6.79778345,-42.2850614
"178","Santana do Piauí","PI",-6.91397185,-41.55475875
"179","Santo Antônio de Lisboa","PI",-6.982451,-41.228909375
"180","Santo Antônio dos Milagres","PI",-6.04712105,-42.7122446
"181","Santo Inácio do Piauí","PI",-7.42630683333333,-41.9086316333333
"182","Sebastião Barros","PI",-10.81734685,-44.8343335
"183","Sebastião Leal","PI",-7.5685651,-44.04952945
"184","Sigefredo Pacheco","PI",-4.9160159,-41.73177135
"185","Simplício Mendes","PI",-7.85844368571429,-41.8953759571429
"186","Simões","PI",-7.60121178333333,-40.8057953333333
"187","Socorro do Piauí","PI",-7.8668802,-42.48957618
"188","Sussuapara","PI",-7.0380428,-41.38266905
"189","São Braz do Piauí","PI",-9.13933055,-43.0040159
"190","São Francisco de Assis do Piauí","PI",-8.23712215,-41.68616795
"191","São Francisco do Piauí","PI",-7.23762476666667,-42.5444636
"192","São Félix do Piauí","PI",-5.93375706666667,-42.1150076166667
"193","São Gonçalo do Gurguéia","PI",-10.02930255,-45.302762
"194","São Gonçalo do Piauí","PI",-5.98694975,-42.7054749333333
"195","São José do Divino","PI",-3.8111265,-41.83107205
"196","São José do Peixe","PI",-7.4923564,-42.5665199333333
"197","São José do Piauí","PI",-6.8752556,-41.4727132
"198","São João da Canabrava","PI",-6.81616635,-41.3440981
"199","São João da Fronteira","PI",-3.9508761,-41.2610754666667
"200","São João da Serra","PI",-5.51296046666667,-41.8961178
"201","São João da Varjota","PI",-6.9426148,-41.8894934
"202","São João do Arraial","PI",-3.8202548,-42.4476773
"203","São João do Piauí","PI",-8.36005165,-42.25164665
"204","São Julião","PI",-7.08366216666667,-40.8239710333333
"205","São Lourenço do Piauí","PI",-9.16832185,-42.54916115
"206","São Luis do Piauí","PI",-6.82248145,-41.32119845
"207","São Miguel da Baixa Grande","PI",-5.8602662,-42.1899535
"208","São Miguel do Fidalgo","PI",-7.59520925,-42.37037775
"209","São Miguel do Tapuio","PI",-5.4963045,-41.3134034714286
"210","São Pedro do Piauí","PI",-5.92775135714286,-42.7218792285714
"211","São Raimundo Nonato","PI",-9.01407893846154,-42.6963208153846
"212","Tamboril do Piauí","PI",-8.3937045,-42.90273055
"213","Tanque do Piauí","PI",-6.5989149,-42.28181085
"214","Teresina","PI",-5.09088609411765,-42.7992172970588
"215","União","PI",-4.58866605,-42.8612688125
"216","Uruçuí","PI",-7.23463395,-44.5545469625
"217","Valença do Piauí","PI",-6.40715765454545,-41.7471736272727
"218","Vera Mendes","PI",-7.6013956,-41.47143325
"219","Vila Nova do Piauí","PI",-7.1380634,-40.93843365
"220","Várzea Branca","PI",-9.23630635,-42.9698514
"221","Várzea Grande","PI",-6.54531422,-42.24679212
"222","Wall Ferraz","PI",-7.23619675,-41.9086063
"223","Água Branca","PI",-5.88997744285714,-42.6384012
