"","municipio","uf","lat","long"
"1","Abatiá","PR",-23.3026576,-50.3174393666667
"2","Adrianópolis","PR",-24.6612806666667,-48.9909505666667
"3","Agudos do Sul","PR",-25.9892724,-49.3333583
"4","Almirante Tamandaré","PR",-25.3140740631579,-49.3014072736842
"5","Altamira do Paraná","PR",-24.8000024,-52.7107418
"6","Alto Paraná","PR",-23.1313219,-52.3355321
"7","Alto Paraíso","PR",-23.504856,-53.7273083
"8","Alto Piquiri","PR",-24.0190179,-53.4406324
"9","Altônia","PR",-23.8721995777778,-53.8953096888889
"10","Alvorada do Sul","PR",-22.7800232,-51.2319008
"11","Amaporã","PR",-23.0959555,-52.7841438
"12","Ampére","PR",-25.9180229857143,-53.4754912285714
"13","Anahy","PR",-24.6458860333333,-53.1339683666667
"14","Andirá","PR",-23.0477071636364,-50.2267529545455
"15","Antonina","PR",-25.4297757416667,-48.7115578416667
"16","Antônio Olinto","PR",-25.9849039,-50.1966721
"17","Apucarana","PR",-23.554899140625,-51.461637778125
"18","Arapongas","PR",-23.4216947730769,-51.4336319538462
"19","Arapoti","PR",-24.1456652444444,-49.8213843777778
"20","Arapuã","PR",-24.307974,-51.790442
"21","Araruna","PR",-23.9289947,-52.5012371
"22","Araucária","PR",-25.5846967043478,-49.4036166913043
"23","Ariranha do Ivaí","PR",-24.3848519,-51.587892
"24","Assaí","PR",-23.3756606785714,-50.84395365
"25","Assis Chateaubriand","PR",-24.4117074733333,-53.52226678
"26","Astorga","PR",-23.2341433625,-51.669699075
"27","Atalaia","PR",-23.1553439,-52.0586265
"28","Balsa Nova","PR",-25.5849304666667,-49.6310742666667
"29","Bandeirantes","PR",-23.1057965666667,-50.3659205533333
"30","Barbosa Ferraz","PR",-24.03008802,-52.01445809
"31","Barra do Jacaré","PR",-23.1065654,-50.1805261
"32","Barracão","PR",-26.2499469666667,-53.6357843
"33","Bela Vista da Caroba","PR",-25.8789598,-53.6669013
"34","Bela Vista do Paraíso","PR",-22.99267805,-51.18979144
"35","Bituruna","PR",-26.1597939666667,-51.5534750666667
"36","Boa Esperança","PR",-24.2416546,-52.7888311
"37","Boa Esperança do Iguaçu","PR",-25.6349768,-53.2143884
"38","Boa Ventura de São Roque","PR",-24.9108771,-51.6497964
"39","Boa Vista da Aparecida","PR",-25.4359467333333,-53.4084293333333
"40","Bocaiúva do Sul","PR",-25.208666625,-49.113239625
"41","Bom Jesus do Sul","PR",-26.1933418,-53.5990632
"42","Bom Sucesso","PR",-23.7095404,-51.7654686
"43","Bom Sucesso do Sul","PR",-26.0765642,-52.8336888
"44","Borrazópolis","PR",-23.940272675,-51.581185875
"45","Braganey","PR",-24.8174260333333,-53.1173219
"46","Brasilândia do Sul","PR",-24.1982067666667,-53.5310919666667
"47","Cafeara","PR",-22.7894538,-51.7136
"48","Cafelândia","PR",-24.619126,-53.3228695666667
"49","Cafezal do Sul","PR",-23.9009824,-53.5137834
"50","Califórnia","PR",-23.6649685,-51.3637279
"51","Cambará","PR",-23.0384430777778,-50.0715657
"52","Cambira","PR",-23.5993049666667,-51.5784153
"53","Cambé","PR",-23.2797769913043,-51.270057073913
"54","Campina Grande do Sul","PR",-25.31087995,-49.0562516642857
"55","Campina da Lagoa","PR",-24.5892564,-52.8261807
"56","Campina do Simão","PR",-25.068895,-51.8251562
"57","Campo Bonito","PR",-25.0284856666667,-52.9950516666667
"58","Campo Largo","PR",-25.4605115608696,-49.5215753782609
"59","Campo Magro","PR",-25.3698696,-49.4502235
"60","Campo Mourão","PR",-24.0441663085714,-52.3793686714286
"61","Campo do Tenente","PR",-25.9886789666667,-49.6771505666667
"62","Candói","PR",-25.6675666,-52.1248116
"63","Cantagalo","PR",-25.3762508,-52.1290754
"64","Capanema","PR",-25.6774382357143,-53.788831
"65","Capitão Leônidas Marques","PR",-25.489561075,-53.6010267
"66","Carambeí","PR",-24.9506095333333,-50.1113071333333
"67","Carlópolis","PR",-23.4242390857143,-49.7184538285714
"68","Cascavel","PR",-24.9601703880597,-53.4707577149254
"69","Castro","PR",-24.7928880857143,-50.0094172142857
"70","Catanduvas","PR",-25.2035846142857,-53.1544630857143
"71","Centenário do Sul","PR",-22.8219981125,-51.6007361625
"72","Cerro Azul","PR",-24.8261639285714,-49.2615610428571
"73","Chopinzinho","PR",-25.8547187,-52.5304362
"74","Cianorte","PR",-23.6599527666667,-52.6072207708333
"75","Cidade Gaúcha","PR",-23.3818628111111,-52.9444516
"76","Clevelândia","PR",-26.41286955,-52.373506
"77","Colombo","PR",-25.3013231928571,-49.21924625
"78","Colorado","PR",-22.8430317076923,-51.9678020692308
"79","Congonhinhas","PR",-23.5484537,-50.5444299571428
"80","Conselheiro Mairinck","PR",-23.6254735,-50.1726493333333
"81","Contenda","PR",-25.67980486,-49.533951
"82","Corbélia","PR",-24.7970171222222,-53.2958167111111
"83","Cornélio Procópio","PR",-23.1837309666667,-50.6517923476191
"84","Coronel Domingos Soares","PR",-26.2269413,-52.0315673
"85","Coronel Vivida","PR",-25.9871474444444,-52.5574012888889
"86","Corumbataí do Sul","PR",-24.0985754,-52.1210073
"87","Cruz Machado","PR",-26.0174851,-51.3457069
"88","Cruzeiro do Iguaçu","PR",-25.62582,-53.1416449
"89","Cruzeiro do Oeste","PR",-23.7839419466667,-53.07346484
"90","Cruzeiro do Sul","PR",-22.963072,-52.1597244
"91","Cruzmaltina","PR",-24.0005875333333,-51.4531920333333
"92","Curitiba","PR",-25.4290478527851,-49.2651762185676
"93","Curiúva","PR",-24.0494285,-50.4507613
"94","Cândido de Abreu","PR",-24.5665242,-51.322246
"95","Céu Azul","PR",-25.1479907,-53.8478487333333
"96","Diamante D'Oeste","PR",-24.9462391,-54.1035251
"97","Diamante do Norte","PR",-22.6609329,-52.8715108
"98","Diamante do Sul","PR",-25.0391091,-52.6913747
"99","Dois Vizinhos","PR",-25.7345636,-53.0585108
"100","Douradina","PR",-23.3848887,-53.2938981
"101","Doutor Camargo","PR",-23.5397475,-52.2228399
"102","Doutor Ulysses","PR",-24.5676173,-49.4190983
"103","Engenheiro Beltrão","PR",-23.8010797545455,-52.2581404181818
"104","Entre Rios do Oeste","PR",-24.706527,-54.243473
"105","Enéas Marques","PR",-25.9437715666667,-53.1584559666667
"106","Esperança Nova","PR",-23.7269259,-53.8114625
"107","Espigão Alto do Iguaçu","PR",-25.4259528666667,-52.8344251
"108","Farol","PR",-24.0916398,-52.6190135
"109","Faxinal","PR",-23.9994448,-51.3228065875
"110","Fazenda Rio Grande","PR",-25.6525618555556,-49.3104851388889
"111","Fernandes Pinheiro","PR",-25.4154922,-50.5486002
"112","Figueira","PR",-23.8453093333333,-50.4101993
"113","Flor da Serra do Sul","PR",-26.258119,-53.3088276
"114","Floraí","PR",-23.3194416,-52.3000006
"115","Floresta","PR",-24.0458238,-52.5327977666667
"116","Florestópolis","PR",-22.865926,-51.3882822
"117","Flórida","PR",-23.086967,-51.9541696
"118","Formosa do Oeste","PR",-24.2974461,-53.3125196
"119","Foz do Iguaçu","PR",-25.5363159095238,-54.5789314873016
"120","Foz do Jordão","PR",-25.7370508,-52.1189678
"121","Francisco Alves","PR",-24.0657157,-53.840269
"122","Francisco Beltrão","PR",-26.0751889111111,-53.0506285148148
"123","Fênix","PR",-23.9252863,-51.98080135
"124","General Carneiro","PR",-26.4293292666667,-51.3170492333333
"125","Godoy Moreira","PR",-24.1873343,-51.9187154
"126","Goioerê","PR",-24.1839204615385,-53.0199983461538
"127","Goioxim","PR",-25.1990977666667,-51.9999775333333
"128","Grandes Rios","PR",-24.1377535,-51.49227245
"129","Guairaçá","PR",-22.9544733,-52.7013938
"130","Guamiranga","PR",-25.1881097,-50.803142
"131","Guapirama","PR",-23.5146041,-50.0443986
"132","Guaporema","PR",-23.3423842,-52.7774267
"133","Guaraci","PR",-22.9700945,-51.6558052
"134","Guaraniaçu","PR",-25.0825129888889,-52.8762649888889
"135","Guarapuava","PR",-25.39095966,-51.466989998
"136","Guaraqueçaba","PR",-25.29525,-48.3142294
"137","Guaratuba","PR",-25.8827815916667,-48.5769043083333
"138","Guaíra","PR",-24.07981749375,-54.25800955625
"139","Honório Serpa","PR",-26.1423269,-52.3865612
"140","Ibaiti","PR",-23.839993475,-50.20679105
"141","Ibema","PR",-25.1147716,-53.0148976
"142","Ibiporã","PR",-23.2689968666667,-51.0515878
"143","Icaraíma","PR",-23.39602515,-53.6275411
"144","Iguaraçu","PR",-23.1983087,-51.8261341
"145","Iguatu","PR",-24.7122356,-53.0883791
"146","Imbaú","PR",-24.4489357,-50.7645178
"147","Imbituva","PR",-25.22874528,-50.60813174
"148","Inajá","PR",-22.7514722,-52.2013539
"149","Indianópolis","PR",-23.4859368,-52.6981327
"150","Inácio Martins","PR",-25.5754139,-51.0771293
"151","Ipiranga","PR",-25.0215979,-50.5901099
"152","Iporã","PR",-24.00174665,-53.7203004166667
"153","Iracema do Oeste","PR",-24.4323703,-53.3568814
"154","Irati","PR",-25.4669209823529,-50.6591103470588
"155","Iretama","PR",-24.3009663,-52.042767825
"156","Itaguajé","PR",-22.6144305,-51.966472
"157","Itaipulândia","PR",-25.1414709,-54.2990341
"158","Itambaracá","PR",-23.0139824,-50.4054623
"159","Itambé","PR",-23.6598215,-51.9901709
"160","Itapejara d'Oeste","PR",-25.9732299333333,-52.8135410333333
"161","Itaperuçu","PR",-25.2164565666667,-49.3448056
"162","Itaúna do Sul","PR",-22.7474491,-52.8859302
"163","Ivaiporã","PR",-24.2460638,-51.6765844
"164","Ivatuba","PR",-23.6185127,-52.2173252
"165","Ivaté","PR",-23.40680775,-53.3715036
"166","Ivaí","PR",-24.9877809,-50.8694026
"167","Jaboti","PR",-23.7420127,-50.0742746
"168","Jacarezinho","PR",-23.1592501,-49.9673421388889
"169","Jaguapitã","PR",-23.1132141375,-51.5298465375
"170","Jaguariaíva","PR",-24.2543935727273,-49.7135644545455
"171","Jandaia do Sul","PR",-23.6024571769231,-51.6448942461538
"172","Janiópolis","PR",-24.1415284,-52.7761327
"173","Japira","PR",-23.8119837,-50.1417183
"174","Japurá","PR",-23.4762762,-52.5553438
"175","Jardim Alegre","PR",-24.18087115,-51.6916375
"176","Jardim Olinda","PR",-22.5616181,-52.0462263
"177","Jataizinho","PR",-23.2746623,-50.9590794
"178","Jesuítas","PR",-24.3817227,-53.3825904
"179","Joaquim Távora","PR",-23.4932274,-49.9069856
"180","Jundiaí do Sul","PR",-23.4459402,-50.2593178
"181","Juranda","PR",-24.4166809,-52.8482452
"182","Jussara","PR",-23.632021,-52.4639868
"183","Kaloré","PR",-23.803618,-51.6579633
"184","Lapa","PR",-25.7683066785714,-49.7201737071429
"185","Laranjal","PR",-24.8868494,-52.4731747
"186","Laranjeiras do Sul","PR",-25.4091160857143,-52.4117924928571
"187","Leópolis","PR",-23.0825326,-50.7516428
"188","Lidianópolis","PR",-24.1071319,-51.6538204
"189","Lindoeste","PR",-25.2585125333333,-53.5761649333333
"190","Loanda","PR",-22.9237632785714,-53.1359034857143
"191","Lobato","PR",-23.0124158,-51.9509073
"192","Londrina","PR",-23.3235230416,-51.1559205176
"193","Luiziana","PR",-24.2891204,-52.2764071
"194","Lunardelli","PR",-23.3602681666667,-51.3812689666667
"195","Lupionópolis","PR",-22.7531519,-51.6578475
"196","Mallet","PR",-25.8823728333333,-50.8286610111111
"197","Mamborê","PR",-24.292638725,-52.52266625
"198","Mandaguari","PR",-23.54068734,-51.66972669
"199","Mandaguaçu","PR",-23.3466885444444,-52.0957449222222
"200","Mandirituba","PR",-25.7788892,-49.3260553
"201","Manfrinópolis","PR",-26.1428567,-53.3126802
"202","Mangueirinha","PR",-25.9421893714286,-52.1827484714286
"203","Manoel Ribas","PR",-24.3808762428571,-50.9242999857143
"204","Marechal Cândido Rondon","PR",-24.55442465,-54.07341925625
"205","Maria Helena","PR",-23.5930535,-53.2036763
"206","Marialva","PR",-23.4848732692308,-51.7942129846154
"207","Marilena","PR",-22.7369117,-53.0336901
"208","Mariluz","PR",-23.9913078,-53.1463404
"209","Marilândia do Sul","PR",-23.7438125111111,-51.3068362888889
"210","Maringá","PR",-23.4274896926829,-51.9391578878049
"211","Maripá","PR",-24.4194187,-53.8299503
"212","Mariópolis","PR",-26.3470888666667,-52.5487878666667
"213","Marmeleiro","PR",-26.1531097,-53.0224994
"214","Marquinho","PR",-25.10356,-52.2550728
"215","Marumbi","PR",-23.7051978,-51.6410818
"216","Matelândia","PR",-25.2419157545455,-53.9831279181818
"217","Matinhos","PR",-25.8203693,-48.5408164909091
"218","Mato Rico","PR",-24.70214,-52.1401234333333
"219","Mauá da Serra","PR",-23.8991256,-51.2249138
"220","Medianeira","PR",-25.2910965666667,-54.0871463833333
"221","Mercedes","PR",-24.4501557,-54.1602425
"222","Mirador","PR",-23.2560829,-52.7745224
"223","Miraselva","PR",-22.96757,-51.4858281
"224","Missal","PR",-25.0914729,-54.2477396
"225","Moreira Sales","PR",-24.0443304,-53.0066088
"226","Morretes","PR",-25.4789016375,-48.831644725
"227","Munhoz de Melo","PR",-23.1480327,-51.7738616
"228","Nossa Senhora das Graças","PR",-22.9135679,-51.7965359
"229","Nova Aliança do Ivaí","PR",-23.1807573,-52.60319
"230","Nova América da Colina","PR",-23.3333940666667,-50.7350752333333
"231","Nova Aurora","PR",-24.5279889,-53.2500551
"232","Nova Cantu","PR",-24.6766275,-52.5751535
"233","Nova Esperança","PR",-23.1959545,-52.2019325
"234","Nova Esperança do Sudoeste","PR",-25.9035324,-53.2349997
"235","Nova Fátima","PR",-23.4358913,-50.5577548
"236","Nova Laranjeiras","PR",-25.3081403,-52.5360087
"237","Nova Londrina","PR",-22.7660547625,-52.9863867625
"238","Nova Olímpia","PR",-23.4758386,-53.0880091
"239","Nova Prata do Iguaçu","PR",-25.6361006,-53.3456253333333
"240","Nova Santa Bárbara","PR",-23.5935691,-50.7655477
"241","Nova Santa Rosa","PR",-24.4663744,-53.9550933
"242","Nova Tebas","PR",-24.4685049,-51.9696018
"243","Novo Itacolomi","PR",-23.7617713,-51.5065121
"244","Ortigueira","PR",-24.20264905,-50.9321584666667
"245","Ourizona","PR",-23.4045252,-52.1958302
"246","Ouro Verde do Oeste","PR",-24.7748447,-53.9037915
"247","Paiçandu","PR",-23.46595524,-52.06982078
"248","Palmas","PR",-26.4836109875,-51.98852993125
"249","Palmeira","PR",-25.4192135545455,-50.0113524545455
"250","Palmital","PR",-24.8850964375,-52.203051125
"251","Palotina","PR",-24.2836584166667,-53.8396734166667
"252","Paranacity","PR",-22.9342616666667,-52.1425719777778
"253","Paranaguá","PR",-25.5208501233333,-48.51619124
"254","Paranapoema","PR",-22.6420973,-52.0814558
"255","Paranavaí","PR",-23.0769452242424,-52.4649706909091
"256","Paraíso do Norte","PR",-23.2794285,-52.6174525
"257","Pato Bragado","PR",-24.6277732333333,-54.2261852666667
"258","Pato Branco","PR",-26.2300265541667,-52.6732241916667
"259","Paula Freitas","PR",-26.192721,-50.9241848
"260","Paulo Frontin","PR",-26.0421619,-50.8297916
"261","Peabiru","PR",-23.9180092,-52.3390171
"262","Perobal","PR",-23.8949437,-53.4113867
"263","Pinhais","PR",-25.435116915,-49.18734702
"264","Pinhal de São Bento","PR",-25.9864705,-53.552731
"265","Pinhalão","PR",-23.7796729,-50.0355595
"266","Pinhão","PR",-25.7058465090909,-51.6380118272727
"267","Piraquara","PR",-25.4491917,-49.07252666875
"268","Piraí do Sul","PR",-24.5363867444444,-49.9304248
"269","Pitanga","PR",-24.7587677923077,-51.7731406923077
"270","Pitangueiras","PR",-23.2316335,-51.5865357
"271","Piên","PR",-26.1000888,-49.4277153
"272","Planaltina do Paraná","PR",-23.0213868,-52.9222584
"273","Planalto","PR",-25.7227626,-53.76475215
"274","Ponta Grossa","PR",-25.1040537743243,-50.1577818121622
"275","Pontal do Paraná","PR",-25.66883762,-48.49702108
"276","Porecatu","PR",-22.7595465461538,-51.3800893615385
"277","Porto Amazonas","PR",-25.5484398333333,-49.8935095333333
"278","Porto Barreiro","PR",-25.5462803,-52.4097099
"279","Porto Rico","PR",-22.7757857,-53.2683996
"280","Porto Vitória","PR",-26.1642986,-51.2324065666667
"281","Prado Ferreira","PR",-23.0420341,-51.4445476666667
"282","Pranchita","PR",-26.0222115,-53.7404404666667
"283","Presidente Castelo Branco","PR",-23.2827400333333,-52.1617290333333
"284","Primeiro de Maio","PR",-22.8544572125,-51.0310392875
"285","Prudentópolis","PR",-25.2121176071429,-50.97785755
"286","Pérola","PR",-23.8003699375,-53.6740884125
"287","Pérola d'Oeste","PR",-25.823735075,-53.742400625
"288","Quarto Centenário","PR",-24.2811698666667,-53.0855996666667
"289","Quatiguá","PR",-23.5652079,-49.9013950333333
"290","Quatro Barras","PR",-25.37097036,-49.07145058
"291","Quatro Pontes","PR",-24.5731053666667,-53.9845864333333
"292","Quedas do Iguaçu","PR",-25.4491913545455,-52.9121565454545
"293","Querência do Norte","PR",-23.08398575,-53.48400785
"294","Quinta do Sol","PR",-23.8544746333333,-52.1309949333333
"295","Quitandinha","PR",-25.873354,-49.49541722
"296","Ramilândia","PR",-25.1184517666667,-54.0309026333333
"297","Rancho Alegre","PR",-23.0697365,-50.9141614
"298","Rancho Alegre D'Oeste","PR",-24.3055933,-52.9549352
"299","Realeza","PR",-25.77930373,-53.53909561
"300","Rebouças","PR",-25.6231050111111,-50.6904385111111
"301","Renascença","PR",-26.1572789666667,-52.9618468666667
"302","Reserva","PR",-24.64960271,-50.84588685
"303","Reserva do Iguaçu","PR",-25.837325825,-52.027275675
"304","Ribeirão Claro","PR",-23.191216075,-49.757927775
"305","Ribeirão do Pinhal","PR",-23.4043449,-50.3595673875
"306","Rio Azul","PR",-25.723901125,-50.79585195
"307","Rio Bom","PR",-23.7624482333333,-51.4134243333333
"308","Rio Bonito do Iguaçu","PR",-25.4891609333333,-52.5282773666667
"309","Rio Branco do Ivaí","PR",-24.3285217,-51.3159564666667
"310","Rio Branco do Sul","PR",-25.1934787615385,-49.3127207538462
"311","Rio Negro","PR",-26.103702325,-49.8002699
"312","Rolândia","PR",-23.3050209666667,-51.3723172611111
"313","Roncador","PR",-24.5955627333333,-52.2746290666667
"314","Rondon","PR",-23.413839225,-52.76795965
"315","Rosário do Ivaí","PR",-24.2598400333333,-51.2575554666667
"316","Sabáudia","PR",-23.31984075,-51.5555957
"317","Salgado Filho","PR",-26.1724579333333,-53.3623599333333
"318","Salto do Itararé","PR",-23.6032061666667,-49.6291412333333
"319","Salto do Lontra","PR",-25.7852333375,-53.3059647375
"320","Santa Amélia","PR",-23.2667529666667,-50.4286193666667
"321","Santa Cecília do Pavão","PR",-23.5203660333333,-50.7898971333333
"322","Santa Cruz de Monte Castelo","PR",-22.9599685,-53.2963507333333
"323","Santa Fé","PR",-23.0367786166667,-51.8161480166667
"324","Santa Helena","PR",-24.79138515,-54.26454189
"325","Santa Inês","PR",-22.63829065,-51.9029787
"326","Santa Isabel do Ivaí","PR",-23.003871825,-53.1906083125
"327","Santa Izabel do Oeste","PR",-25.821677,-53.4828244
"328","Santa Lúcia","PR",-25.4109547666667,-53.5684881
"329","Santa Maria do Oeste","PR",-24.930881575,-51.91199275
"330","Santa Mariana","PR",-23.1530198666667,-50.5209743111111
"331","Santa Mônica","PR",-23.110647525,-53.107585275
"332","Santa Tereza do Oeste","PR",-25.052811525,-53.625114375
"333","Santa Terezinha de Itaipu","PR",-25.4425224,-54.4017775
"334","Santana do Itararé","PR",-23.7567914,-49.6300304333333
"335","Santo Antônio da Platina","PR",-23.2989266,-50.07366511875
"336","Santo Antônio do Caiuá","PR",-22.7375344,-52.3457689666667
"337","Santo Antônio do Paraíso","PR",-23.4859757333333,-50.6407746
"338","Santo Antônio do Sudoeste","PR",-26.0682031583333,-53.721534975
"339","Santo Inácio","PR",-22.6969445666667,-51.7935448333333
"340","Sapopema","PR",-23.8986415666667,-50.5955038
"341","Sarandi","PR",-23.4524372526316,-51.8613559631579
"342","Saudade do Iguaçu","PR",-25.6918405333333,-52.6184158333333
"343","Sengés","PR",-24.1139423666667,-49.4668447
"344","Serranópolis do Iguaçu","PR",-25.3803293,-54.0543376
"345","Sertaneja","PR",-23.034585575,-50.82041395
"346","Sertanópolis","PR",-23.0602725625,-51.03550005
"347","Siqueira Campos","PR",-23.6850132375,-49.836859625
"348","Sulina","PR",-25.6988345,-52.7237162666667
"349","São Carlos do Ivaí","PR",-23.3168291333333,-52.4755702666667
"350","São Jerônimo da Serra","PR",-23.7135911333333,-50.7390333222222
"351","São Jorge d'Oeste","PR",-25.71666615,-52.919050225
"352","São Jorge do Ivaí","PR",-23.4352594666667,-52.2905561666667
"353","São Jorge do Patrocínio","PR",-23.7634474,-53.8792946
"354","São José da Boa Vista","PR",-23.9154548333333,-49.6542138333333
"355","São José das Palmeiras","PR",-24.8310948333333,-54.0749854
"356","São José dos Pinhais","PR",-25.5387938326087,-49.1940759282609
"357","São João","PR",-25.8253001833333,-52.72606995
"358","São João do Caiuá","PR",-22.8594387666667,-52.3444097
"359","São João do Ivaí","PR",-23.99155282,-51.82170314
"360","São João do Triunfo","PR",-25.6814695375,-50.295365
"361","São Manoel do Paraná","PR",-23.3946125333333,-52.6454107333333
"362","São Mateus do Sul","PR",-25.8750864142857,-50.3783456428571
"363","São Miguel do Iguaçu","PR",-25.3480187909091,-54.2322874181818
"364","São Pedro do Iguaçu","PR",-24.9353362,-53.8557388
"365","São Pedro do Ivaí","PR",-23.864985925,-51.85625595
"366","São Pedro do Paraná","PR",-22.8244032666667,-53.2223461333333
"367","São Sebastião da Amoreira","PR",-23.4663436333333,-50.7615114
"368","São Tomé","PR",-23.5363133,-52.5842022
"369","Tamarana","PR",-23.7239024333333,-51.0980346666667
"370","Tamboara","PR",-23.1999607333333,-52.4903336
"371","Tapejara","PR",-23.7386825,-52.8957953333333
"372","Tapira","PR",-23.3221737666667,-53.0697730333333
"373","Teixeira Soares","PR",-25.3644629,-50.4586702111111
"374","Telêmaco Borba","PR",-24.3274851263158,-50.6194151894737
"375","Terra Boa","PR",-23.7653217111111,-52.4453699444444
"376","Terra Rica","PR",-22.7197963875,-52.6216910375
"377","Terra Roxa","PR",-24.1825950222222,-54.0895219
"378","Tibagi","PR",-24.5163603375,-50.4114330625
"379","Tijucas do Sul","PR",-25.9370428333333,-49.1927715
"380","Toledo","PR",-24.7232655571429,-53.7396314771429
"381","Tomazina","PR",-23.7782158,-49.9536204333333
"382","Três Barras do Paraná","PR",-25.4067495,-53.1769274666667
"383","Tunas do Paraná","PR",-24.97666385,-49.08485065
"384","Tuneiras do Oeste","PR",-23.863023775,-52.872606275
"385","Tupãssi","PR",-24.587034,-53.5127099333333
"386","Turvo","PR",-25.0457105666667,-51.5377964666667
"387","Ubiratã","PR",-24.54579738,-52.98446439
"388","Umuarama","PR",-23.7549345105263,-53.3168785947368
"389","Uniflor","PR",-23.0787440333333,-52.1590192666667
"390","União da Vitória","PR",-26.2296393862069,-51.0861937137931
"391","Uraí","PR",-23.20132951,-50.79533199
"392","Ventania","PR",-24.2455313666667,-50.242187
"393","Vera Cruz do Oeste","PR",-25.0588311,-53.8787727
"394","Verê","PR",-25.8798457333333,-52.9072903
"395","Virmond","PR",-25.3762273,-52.2176851333333
"396","Vitorino","PR",-26.2673315,-52.7832590666667
"397","Wenceslau Braz","PR",-23.8772160090909,-49.8074411454545
"398","Xambrê","PR",-23.72819125,-53.498133975
"399","Ângulo","PR",-23.1956708333333,-51.9118157
