"","municipio","uf","lat","long"
"1","Acari","RN",-6.4599823,-36.6410138
"2","Afonso Bezerra","RN",-5.4985007,-36.5001051
"3","Alexandria","RN",-6.4042599,-38.0097852
"4","Almino Afonso","RN",-6.1445984,-37.7665002
"5","Alto do Rodrigues","RN",-5.2891541,-36.7579859
"6","Angicos","RN",-5.6716528,-36.604608
"7","Antônio Martins","RN",-6.2271448,-37.8936102
"8","Apodi","RN",-5.64834234545455,-37.7933228545455
"9","Areia Branca","RN",-4.9549177,-37.1318192888889
"10","Arês","RN",-6.1949624,-35.160198
"11","Augusto Severo","RN",-5.862639,-37.310711
"12","Açu","RN",-5.577279,-36.9084023
"13","Baraúna","RN",-5.0705761,-37.6173484
"14","Barcelona","RN",-5.9510672,-35.9206428
"15","Baía Formosa","RN",-6.37234555,-35.00903545
"16","Bento Fernandes","RN",-5.6950445,-35.8164608
"17","Bodó","RN",-5.9827031,-36.4093226
"18","Bom Jesus","RN",-5.9848236,-35.5839872
"19","Brejinho","RN",-6.1911942,-35.3578265
"20","Caicó","RN",-6.46055635,-37.0973051666667
"21","Caiçara do Norte","RN",-5.079988,-36.0685285
"22","Caiçara do Rio do Vento","RN",-5.7603268,-35.9985423
"23","Campo Redondo","RN",-6.2434471,-36.180537
"24","Canguaretama","RN",-6.3828537,-35.1248568
"25","Caraúbas","RN",-5.7959071,-37.5530664
"26","Carnaubais","RN",-5.3388314,-36.8376556
"27","Carnaúba dos Dantas","RN",-6.5488429,-36.5934214
"28","Ceará-Mirim","RN",-5.63960967142857,-35.4207776428571
"29","Cerro Corá","RN",-6.0454976,-36.3478242
"30","Coronel Ezequiel","RN",-6.383345,-36.2130004
"31","Coronel João Pessoa","RN",-6.2719428,-38.4325533
"32","Cruzeta","RN",-6.4129088,-36.7823038
"33","Currais Novos","RN",-6.262943,-36.5176957
"34","Doutor Severiano","RN",-6.0938986,-38.3734938
"35","Encanto","RN",-6.1100238,-38.3066753
"36","Equador","RN",-6.9466545,-36.7153677
"37","Espírito Santo","RN",-6.3344843,-35.3092713
"38","Extremoz","RN",-5.70566687142857,-35.3017590714286
"39","Felipe Guerra","RN",-5.5913476,-37.6856432
"40","Fernando Pedroza","RN",-5.7188762,-36.4678899
"41","Florânia","RN",-6.1234698,-36.8197149
"42","Francisco Dantas","RN",-6.0814857,-38.1198569
"43","Frutuoso Gomes","RN",-6.1566764,-37.8383308
"44","Galinhos","RN",-5.1147721,-36.2796381
"45","Goianinha","RN",-6.2689159,-35.2090314
"46","Governador Dix-Sept Rosado","RN",-5.4593548,-37.5212369
"47","Grossos","RN",-4.9803747,-37.1553528
"48","Guamaré","RN",-5.1260016,-36.3298628
"49","Ielmo Marinho","RN",-5.81531483333333,-35.5528405666667
"50","Ipanguaçu","RN",-5.4988745,-36.8528388
"51","Ipueira","RN",-6.8118413,-37.1997523
"52","Itajá","RN",-5.6355463,-36.86008025
"53","Itaú","RN",-5.8410572,-37.9942397
"54","Jandaíra","RN",-5.3570109,-36.1255351
"55","Janduís","RN",-6.0171037,-37.4089824
"56","Januário Cicco","RN",-6.1557898,-35.6012934
"57","Japi","RN",-6.4610927,-35.9400873
"58","Jardim de Angicos","RN",-5.6561261,-35.968688
"59","Jardim de Piranhas","RN",-7.82728288571429,-39.4206134571429
"60","Jardim do Seridó","RN",-6.5906171,-36.7766259
"61","Jaçanã","RN",-6.4259293,-36.2018573
"62","José da Penha","RN",-6.3182652,-38.2788992
"63","João Câmara","RN",-5.5438704,-35.8145387
"64","João Dias","RN",-6.2703612,-37.7959025
"65","Jucurutu","RN",-6.0341211,-37.0206574
"66","Jundiá","RN",-6.2766808,-35.3612516
"67","Lagoa Nova","RN",-6.0957619,-36.4689592
"68","Lagoa Salgada","RN",-6.1281257,-35.4976306
"69","Lagoa d'Anta","RN",-6.3906965,-35.5975026
"70","Lagoa de Pedras","RN",-6.1536499,-35.4317921
"71","Lagoa de Velhos","RN",-6.0071176,-35.8577854
"72","Lajes","RN",-5.6970692,-36.2412402
"73","Lajes Pintadas","RN",-6.1506855,-36.1062434
"74","Lucrécia","RN",-6.094118,-37.8106455
"75","Luís Gomes","RN",-6.4110957,-38.3844641
"76","Macau","RN",-5.11696658333333,-36.632348725
"77","Macaíba","RN",-5.85946224166667,-35.3505242166667
"78","Major Sales","RN",-6.4099608,-38.3180316
"79","Marcelino Vieira","RN",-6.2939961,-38.1676664
"80","Martins","RN",-5.919163175,-37.738588475
"81","Maxaranguape","RN",-5.5163795,-35.2624274
"82","Messias Targino","RN",-6.0798201,-37.5118142
"83","Montanhas","RN",-6.4853113,-35.2863882
"84","Monte Alegre","RN",-6.001060125,-35.6932145
"85","Monte das Gameleiras","RN",-6.4391057,-35.782028
"86","Mossoró","RN",-5.19404798032787,-37.3380203754098
"87","Natal","RN",-5.81328472439024,-35.2181644457317
"88","Nova Cruz","RN",-6.4792582,-35.4348393
"89","Nísia Floresta","RN",-6.09264585,-35.2108416125
"90","Olho-d'Água do Borges","RN",-5.9561891,-37.7051576
"91","Ouro Branco","RN",-6.6983508,-36.944101075
"92","Paraná","RN",-6.4690702,-38.3042045
"93","Parazinho","RN",-5.2191731,-35.8389348
"94","Paraú","RN",-5.7742412,-37.1007609
"95","Parelhas","RN",-6.6883868,-36.657978
"96","Parnamirim","RN",-5.91300391935484,-35.2623728774194
"97","Passa e Fica","RN",-6.4362568,-35.6429199
"98","Passagem","RN",-6.2789418,-35.3780368
"99","Patu","RN",-6.1058672,-37.6417092
"100","Pau dos Ferros","RN",-6.1024898,-38.2092215
"101","Pedra Grande","RN",-5.1518626,-35.87845
"102","Pedra Preta","RN",-5.5777385,-36.104902
"103","Pedro Avelino","RN",-5.5224179,-36.3872952
"104","Pedro Velho","RN",-6.439694,-35.2219016
"105","Pendências","RN",-5.2577379,-36.7238597
"106","Pilões","RN",-6.268293,-38.0451694
"107","Portalegre","RN",-6.0245694,-37.9844688
"108","Porto do Mangue","RN",-5.0633715,-36.7923721
"109","Poço Branco","RN",-5.62456835714286,-35.6618652
"110","Presidente Juscelino","RN",-6.10407986666667,-35.7085446666667
"111","Pureza","RN",-5.46601456666667,-35.5567507333333
"112","Rafael Fernandes","RN",-6.1924996,-38.2246127333333
"113","Rafael Godeiro","RN",-6.07568306666667,-37.7160923
"114","Riacho da Cruz","RN",-5.9341299,-37.9459626666667
"115","Riacho de Santana","RN",-6.25896395,-38.315966525
"116","Riachuelo","RN",-5.81548836666667,-35.8226147666667
"117","Rio do Fogo","RN",-5.27674556666667,-35.3793508333333
"118","Rodolfo Fernandes","RN",-5.77479203333333,-38.0531637666667
"119","Ruy Barbosa","RN",-5.8841251,-35.9354517333333
"120","Santa Cruz","RN",-6.22905255833333,-36.0230005083333
"121","Santa Maria","RN",-5.8436956,-35.696194
"122","Santana do Matos","RN",-5.9555994,-36.6540098428571
"123","Santana do Seridó","RN",-6.76626636666667,-36.7327808
"124","Santo Antônio","RN",-5.90976466666667,-36.1412194
"125","Senador Elói de Souza","RN",-6.0355067,-35.6949325333333
"126","Senador Georgino Avelino","RN",-6.16102093333333,-35.1275961
"127","Serra Negra do Norte","RN",-6.6627644875,-37.4003804375
"128","Serra de São Bento","RN",-6.4203792,-35.7045464666667
"129","Serra do Mel","RN",-5.1996118,-37.0301215666667
"130","Serrinha","RN",-6.27971726666667,-35.4997773666667
"131","Serrinha dos Pintos","RN",-6.15372455,-37.97149065
"132","Severiano Melo","RN",-5.78546883333333,-37.9558076666667
"133","São Bento do Norte","RN",-5.10930027142857,-35.9662050142857
"134","São Bento do Trairí","RN",-6.34249403333333,-36.0837502
"135","São Fernando","RN",-6.3794009,-37.1843392
"136","São Francisco do Oeste","RN",-5.98224346666667,-38.1588080666667
"137","São Gonçalo do Amarante","RN",-5.79145146923077,-35.3305596076923
"138","São José de Mipibu","RN",-6.07211341,-35.23903435
"139","São José do Campestre","RN",-9.35548685714286,-37.5586040142857
"140","São José do Seridó","RN",-6.449732,-36.8747114333333
"141","São João do Sabugi","RN",-6.7178569,-37.2023554285714
"142","São Miguel","RN",-6.2135247,-38.4966363888889
"143","São Paulo do Potengi","RN",-5.89613136666667,-35.7587424333333
"144","São Pedro","RN",-5.9023261,-35.6335232333333
"145","São Rafael","RN",-5.79181752857143,-36.8784542714286
"146","São Tomé","RN",-5.9705662,-36.074486
"147","São Vicente","RN",-6.21963075,-36.683964725
"148","Sítio Novo","RN",-6.10765213333333,-35.9098153
"149","Taboleiro Grande","RN",-5.92581276666667,-38.0432354666667
"150","Taipu","RN",-5.62342495714286,-35.5948216857143
"151","Tangará","RN",-6.19933635714286,-35.8009550571429
"152","Tenente Ananias","RN",-6.46350786666667,-38.1795792666667
"153","Tenente Laurentino Cruz","RN",-6.13705775,-36.7137733
"154","Tibau","RN",-4.8358154,-37.263840325
"155","Tibau do Sul","RN",-6.2050581,-35.0761514333333
"156","Timbaúba dos Batistas","RN",-6.46230783333333,-37.2745996
"157","Touros","RN",-5.19385626666667,-35.4689547111111
"158","Triunfo Potiguar","RN",-5.85483485,-37.183554
"159","Umarizal","RN",-5.9952993375,-37.8086587375
"160","Upanema","RN",-5.64167134285714,-37.2583761428571
"161","Venha-Ver","RN",-6.32264833333333,-38.4855269
"162","Vera Cruz","RN",-6.04438773333333,-35.4284381
"163","Vila Flor","RN",-6.31027743333333,-35.0687321333333
"164","Viçosa","RN",-5.9906903,-37.9436176666667
"165","Várzea","RN",-6.34772086666667,-35.3753637333333
"166","Água Nova","RN",-6.20060326666667,-38.2973673333333
